{"name": "Marco Tour", "formatted_phone_number": "32 603 01 41", "location": {"lat": 50.261548, "lng": 19.025253}, "formatted_address": "Uniwersytecka 13, Katowice, Polska", "emails": [], "contact_page": ["http://www.marcotour.pl/p,kontakt"], "international_phone_number": "+48 32 603 01 41", "website": "http://www.marcotour.pl/", "address_components": {"street_number": "13", "country": "Poland", "city": "Katowice", "postal_code": null, "state": "\u015bl\u0105skie", "route": "Uniwersytecka"}},
{"name": "Hogg Robinson Polska Sp. z o.o.", "formatted_phone_number": "32 259 63 15", "location": {"lat": 50.262148, "lng": 19.023375}, "formatted_address": "aleja Korfantego 9, Katowice, Polska", "emails": [], "contact_page": ["http://www.hrgworldwide.com/Contact-us/Pages/Local-market-contacts.aspx", "http://www.hrgworldwide.com/pl-pl/pl-pl/Contact-us/Pages/default.aspx", "http://www.hrgworldwide.com/pl-pl/Contact-us/Pages/default.aspx"], "international_phone_number": "+48 32 259 63 15", "website": "http://www.hrgworldwide.com/pl-pl", "address_components": {"street_number": "9", "country": "Poland", "city": "Katowice", "postal_code": null, "state": "\u015bl\u0105skie", "route": "aleja Korfantego"}},
{"name": "Podr\u00f3\u017ce. Sp. z o.o. Agencja turystyczna", "formatted_phone_number": "32 259 70 25", "location": {"lat": 50.26061, "lng": 19.023908}, "formatted_address": "Moniuszki 7, Katowice, Polska", "emails": [], "contact_page": [], "international_phone_number": "+48 32 259 70 25", "website": "http://podroze.katowice.pl/", "address_components": {"street_number": "7", "country": "Poland", "city": "Katowice", "postal_code": null, "state": "\u015bl\u0105skie", "route": "Moniuszki"}},
{"name": "Itaka", "formatted_phone_number": "32 608 98 00", "location": {"lat": 50.260892, "lng": 19.023148}, "formatted_address": "ul. Moniuszki 4/2, Katowice, Polska", "emails": [], "contact_page": ["http://www.itaka.pl/kontakt/index.php"], "international_phone_number": "+48 32 608 98 00", "website": "http://www.itaka.pl/", "address_components": {"street_number": null, "country": "Poland", "city": "Katowice", "postal_code": "40-005", "state": null, "route": null}},
{"name": "Biuro Podr\u00f3\u017cy Sindbad", "formatted_phone_number": "32 253 50 33", "location": {"lat": 50.260892, "lng": 19.023146}, "formatted_address": "Moniuszki 4, Katowice, Polska", "emails": [], "contact_page": ["http://www.sindbadkatowice.pl/strona/kontakt", "http://www.sindbadkatowice.pl/szybki_kontakt"], "international_phone_number": "+48 32 253 50 33", "website": "http://www.sindbadkatowice.pl/", "address_components": {"street_number": "4", "country": "Poland", "city": "Katowice", "postal_code": null, "state": "\u015bl\u0105skie", "route": "Moniuszki"}},
{"name": "Morgana Tours", "formatted_phone_number": "519 077 999", "location": {"lat": 50.25829, "lng": 19.03024}, "formatted_address": "Warszawska 32, Katowice, Polska", "emails": [], "contact_page": [], "international_phone_number": "+48 519 077 999", "website": "http://morganatours.pl/", "address_components": {"street_number": "32", "country": "Poland", "city": "Katowice", "postal_code": null, "state": "\u015bl\u0105skie", "route": "Warszawska"}},
{"name": "Salon Sprzeda\u017cy Wezyr Holidays", "formatted_phone_number": "32 782 30 65", "location": {"lat": 50.26101, "lng": 19.02291}, "formatted_address": "Moniuszki 2, Katowice, Polska", "emails": [], "contact_page": ["http://www.wezyrholidays.pl/o_wezyrholidays#siedzibatab"], "international_phone_number": "+48 32 782 30 65", "website": "http://www.wezyrholidays.pl/", "address_components": {"street_number": "2", "country": "Poland", "city": "Katowice", "postal_code": "40", "state": null, "route": "Moniuszki"}},
{"name": "Travel Caffe Biuro Podr\u00f3\u017cy", "formatted_phone_number": "32 258 05 04", "location": {"lat": 50.260917, "lng": 19.022942}, "formatted_address": "Moniuszki 2, Katowice, Polska", "emails": [], "contact_page": ["http://www.travelcaffe.pl/kontakt.html"], "international_phone_number": "+48 32 258 05 04", "website": "http://www.travelcaffe.pl/", "address_components": {"street_number": "2", "country": "Poland", "city": "Katowice", "postal_code": "40-005", "state": "\u015bl\u0105skie", "route": "Moniuszki"}},
{"name": "Best travel. Centrum podr\u00f3\u017cy", "formatted_phone_number": "32 253 81 29", "location": {"lat": 50.26224, "lng": 19.022171}, "formatted_address": "aleja Korfantego 6, Katowice, Polska", "emails": [], "contact_page": [], "international_phone_number": "+48 32 253 81 29", "website": [], "address_components": {"street_number": "6", "country": "Poland", "city": "Katowice", "postal_code": null, "state": "\u015bl\u0105skie", "route": "aleja Korfantego"}},
{"name": "Rainbow Tours SA", "formatted_phone_number": "32 206 20 68", "location": {"lat": 50.260588, "lng": 19.022797}, "formatted_address": "aleja Korfantego 3, Katowice, Polska", "emails": [], "contact_page": ["http://www.rainbowtours.pl/kontakt"], "international_phone_number": "+48 32 206 20 68", "website": "http://www.rainbowtours.pl/", "address_components": {"street_number": "3", "country": "Poland", "city": "Katowice", "postal_code": "40-005", "state": "\u015bl\u0105skie", "route": "aleja Korfantego"}},
{"name": "ZNP Logos Tour Sp. z o.o. Oddzia\u0142", "formatted_phone_number": "32 253 78 58", "location": {"lat": 50.257892, "lng": 19.027749}, "formatted_address": "Starowiejska 11, Katowice, Polska", "emails": [], "contact_page": ["http://logostour.pl/web/guest/kontakt", "http://logostour.pl/kontakt"], "international_phone_number": "+48 32 253 78 58", "website": "http://logostour.pl/", "address_components": {"street_number": "11", "country": "Poland", "city": "Katowice", "postal_code": null, "state": "\u015bl\u0105skie", "route": "Starowiejska"}},
{"name": "Dolomity Tour. Biuro podr\u00f3\u017cy", "formatted_phone_number": "32 206 96 65", "location": {"lat": 50.25807, "lng": 19.026408}, "formatted_address": "\u015bwi\u0119tego Stanis\u0142awa 8, Katowice, Polska", "emails": [], "contact_page": ["http://www.dolomity.com.pl/kontakt"], "international_phone_number": "+48 32 206 96 65", "website": "http://www.dolomity.com.pl/", "address_components": {"street_number": "8", "country": "Poland", "city": "Katowice", "postal_code": null, "state": "\u015bl\u0105skie", "route": "\u015bwi\u0119tego Stanis\u0142awa"}},
{"name": "Atas Sp. z o.o. Agencja turystyczna", "formatted_phone_number": "32 255 24 84", "location": {"lat": 50.259047, "lng": 19.023904}, "formatted_address": "Warszawska 3, Katowice, Polska", "emails": [], "contact_page": [], "international_phone_number": "+48 32 255 24 84", "website": "http://czas-na-malte.pl/", "address_components": {"street_number": "3", "country": "Poland", "city": "Katowice", "postal_code": null, "state": "\u015bl\u0105skie", "route": "Warszawska"}},
{"name": "G\u00f3rno\u015bl\u0105skie Towarzystwo Lotnicze S.A.", "formatted_phone_number": "32 201 06 33", "location": {"lat": 50.266417, "lng": 19.023572}, "formatted_address": "aleja Korfantego 38, Katowice, Polska", "emails": [], "contact_page": [], "international_phone_number": "+48 32 201 06 33", "website": "http://www.gtl.com.pl/", "address_components": {"street_number": "38", "country": "Poland", "city": "Katowice", "postal_code": null, "state": "\u015bl\u0105skie", "route": "aleja Korfantego"}},
{"name": "Astra Tour. Biuro podr\u00f3\u017cy", "formatted_phone_number": "32 258 72 60", "location": {"lat": 50.258914, "lng": 19.023464}, "formatted_address": "Dyrekcyjna 9, Katowice, Polska", "emails": [], "contact_page": ["http://www.astratour.pl/p,Kontakt"], "international_phone_number": "+48 32 258 72 60", "website": "http://www.astratour.pl/", "address_components": {"street_number": "9", "country": "Poland", "city": "Katowice", "postal_code": null, "state": "\u015bl\u0105skie", "route": "Dyrekcyjna"}},
{"name": "Okr\u0119gowe biuro turystyki Polskiego Zwi\u0105zku Motorowego", "formatted_phone_number": "32 253 74 46", "location": {"lat": 50.257547, "lng": 19.026462}, "formatted_address": "Mariacka 12, Katowice, Polska", "emails": ["'utf-8' codec can't decode byte 0xb3 in position 567: invalid start byte"], "contact_page": ["http://www.pzmot.katowice.pl/dane_kontaktowe.html"], "international_phone_number": "+48 32 253 74 46", "website": "http://www.pzmot.katowice.pl/", "address_components": {"street_number": "12", "country": "Poland", "city": "Katowice", "postal_code": null, "state": "\u015bl\u0105skie", "route": "Mariacka"}},
{"name": "Globus Sp. z o.o. Biuro podr\u00f3\u017cy i us\u0142ug. Oddzia\u0142", "formatted_phone_number": "32 255 17 83", "location": {"lat": 50.258886, "lng": 19.023139}, "formatted_address": "Dyrekcyjna 10, Katowice, Polska", "emails": [], "contact_page": [], "international_phone_number": "+48 32 255 17 83", "website": "http://www.globus.travel.pl/", "address_components": {"street_number": "10", "country": "Poland", "city": "Katowice", "postal_code": null, "state": "\u015bl\u0105skie", "route": "Dyrekcyjna"}},
{"name": "Itaka", "formatted_phone_number": "32 358 37 60", "location": {"lat": 50.257429, "lng": 19.026546}, "formatted_address": "Mariacka 19, Katowice, Polska", "emails": [], "contact_page": ["http://www.itaka.pl/kontakt/index.php"], "international_phone_number": "+48 32 358 37 60", "website": "http://www.itaka.pl/", "address_components": {"street_number": "19", "country": "Poland", "city": "Katowice", "postal_code": "40-014", "state": "\u015bl\u0105skie", "route": "Mariacka"}},
{"name": "Iwtravel. Biuro podr\u00f3\u017cy", "formatted_phone_number": "32 710 60 02", "location": {"lat": 50.258014, "lng": 19.024514}, "formatted_address": "Miel\u0119ckiego 7, Katowice, Polska", "emails": [], "contact_page": [], "international_phone_number": "+48 32 710 60 02", "website": [], "address_components": {"street_number": "7", "country": "Poland", "city": "Katowice", "postal_code": null, "state": "\u015bl\u0105skie", "route": "Miel\u0119ckiego"}},
{"name": "Natura Tour Sp. z o.o. Biuro turystyki", "formatted_phone_number": "32 710 56 22", "location": {"lat": 50.258014, "lng": 19.024514}, "formatted_address": "Andrzeja Miel\u0119ckiego 7, Katowice, Polska", "emails": [], "contact_page": ["http://www.naturatour.pl/pl/kontakt"], "international_phone_number": "+48 32 710 56 22", "website": "http://www.naturatour.pl/", "address_components": {"street_number": "7", "country": "Poland", "city": "Katowice", "postal_code": null, "state": "\u015bl\u0105skie", "route": "Andrzeja Miel\u0119ckiego"}},
{"name": "GTL S.A. Biuro podr\u00f3\u017cy. Agencja lotnicza", "formatted_phone_number": "32 257 21 00", "location": {"lat": 50.266417, "lng": 19.023572}, "formatted_address": "aleja Korfantego 38, Katowice, Polska", "emails": [], "contact_page": [], "international_phone_number": "+48 32 257 21 00", "website": [], "address_components": {"street_number": "38", "country": "Poland", "city": "Katowice", "postal_code": null, "state": "\u015bl\u0105skie", "route": "aleja Korfantego"}},
{"name": "BP. Agencja turystyczna", "formatted_phone_number": "32 253 98 85", "location": {"lat": 50.258014, "lng": 19.024514}, "formatted_address": "Andrzeja Miel\u0119ckiego 7, Katowice, Polska", "emails": ["HTTP Error 404: Not Found"], "contact_page": ["http://bpwczasy.pl/index.php?mainmodule=Ucs/Menu/untSubpages.php&id=00000003VT27740NM283QS583MY8WEU1", "http://bpwczasy.pl/mailto:kontakt@bpwczasy.pl"], "international_phone_number": "+48 32 253 98 85", "website": "http://bpwczasy.pl/", "address_components": {"street_number": "7", "country": "Poland", "city": "Katowice", "postal_code": null, "state": "\u015bl\u0105skie", "route": "Andrzeja Miel\u0119ckiego"}},
{"name": "Sun & Fun Holidays Sp. z o.o. Oddzia\u0142", "formatted_phone_number": "32 205 43 90", "location": {"lat": 50.257174, "lng": 19.031307}, "formatted_address": "Damrota 6, Katowice, Polska", "emails": [], "contact_page": ["http://www.sunfun.pl/kontakt"], "international_phone_number": "+48 32 205 43 90", "website": "http://www.sunfun.pl/", "address_components": {"street_number": "6", "country": "Poland", "city": "Katowice", "postal_code": null, "state": "\u015bl\u0105skie", "route": "Damrota"}},
{"name": "Vento. Biuro podr\u00f3\u017cy", "formatted_phone_number": "32 253 03 83", "location": {"lat": 50.257409, "lng": 19.026052}, "formatted_address": "Mariacka 11, Katowice, Polska", "emails": [], "contact_page": [], "international_phone_number": "+48 32 253 03 83", "website": "http://www.morganatours.pl/", "address_components": {"street_number": "11", "country": "Poland", "city": "Katowice", "postal_code": null, "state": "\u015bl\u0105skie", "route": "Mariacka"}},
{"name": "Victoria Trawel. Firma turystyczna", "formatted_phone_number": "32 258 56 47", "location": {"lat": 50.26305, "lng": 19.020461}, "formatted_address": "Sokolska 31, Katowice, Polska", "emails": ["unknown url type: \"'NoneType' object has no attribute 'findAll'\""], "contact_page": ["'NoneType' object has no attribute 'findAll'"], "international_phone_number": "+48 32 258 56 47", "website": "http://www.victoriatrawel.pl/", "address_components": {"street_number": "31", "country": "Poland", "city": "Katowice", "postal_code": null, "state": "\u015bl\u0105skie", "route": "Sokolska"}},
{"name": "Hanpol Sp. z o.o. Biuro podr\u00f3\u017cy", "formatted_phone_number": "32 251 26 70", "location": {"lat": 50.25832, "lng": 19.023341}, "formatted_address": "Staromiejska 11, Katowice, Polska", "emails": [], "contact_page": [], "international_phone_number": "+48 32 251 26 70", "website": [], "address_components": {"street_number": "11", "country": "Poland", "city": "Katowice", "postal_code": null, "state": "\u015bl\u0105skie", "route": "Staromiejska"}},
{"name": "Weekend Polska. Biuro podr\u00f3\u017cy", "formatted_phone_number": "32 253 09 11", "location": {"lat": 50.257496, "lng": 19.024974}, "formatted_address": "Mariacka 3, Katowice, Polska", "emails": [], "contact_page": [], "international_phone_number": "+48 32 253 09 11", "website": [], "address_components": {"street_number": "3", "country": "Poland", "city": "Katowice", "postal_code": null, "state": "\u015bl\u0105skie", "route": "Mariacka"}},
{"name": "Turysta. Sp\u00f3\u0142dzielnia turystyczna", "formatted_phone_number": "32 253 87 66", "location": {"lat": 50.257511, "lng": 19.02478}, "formatted_address": "Mariacka 1, Katowice, Polska", "emails": [], "contact_page": [], "international_phone_number": "+48 32 253 87 66", "website": "http://www.turysta.katowice.pl/", "address_components": {"street_number": "1", "country": "Poland", "city": "Katowice", "postal_code": null, "state": "\u015bl\u0105skie", "route": "Mariacka"}},
{"name": "Atlas Tours. Biuro podr\u00f3\u017cy", "formatted_phone_number": "32 200 01 89", "location": {"lat": 50.257511, "lng": 19.02478}, "formatted_address": "Mariacka 1, Katowice, Polska", "emails": [], "contact_page": [], "international_phone_number": "+48 32 200 01 89", "website": "http://www.atlas-tours.pl/", "address_components": {"street_number": "1", "country": "Poland", "city": "Katowice", "postal_code": null, "state": "\u015bl\u0105skie", "route": "Mariacka"}},
{"name": "Globus. Przewozy mi\u0119dzynarodowe, wynajem autokar\u00f3w", "formatted_phone_number": "32 253 98 95", "location": {"lat": 50.257511, "lng": 19.02478}, "formatted_address": "Mariacka 1, Katowice, Polska", "emails": [], "contact_page": [], "international_phone_number": "+48 32 253 98 95", "website": [], "address_components": {"street_number": "1", "country": "Poland", "city": "Katowice", "postal_code": null, "state": "\u015bl\u0105skie", "route": "Mariacka"}},
{"name": "Int Travel", "formatted_phone_number": "32 203 60 33", "location": {"lat": 50.267863, "lng": 19.024895}, "formatted_address": "aleja Korfantego 51, Katowice, Polska", "emails": [], "contact_page": ["http://www.inttravel.pl/cms/index.php?inc=14&id_arty=12211223246032"], "international_phone_number": "+48 32 203 60 33", "website": "http://www.inttravel.pl/", "address_components": {"street_number": "51", "country": "Poland", "city": "Katowice", "postal_code": null, "state": "\u015bl\u0105skie", "route": "aleja Korfantego"}},
{"name": "Lufthansa City Center Travel Club. Bilety lotnicze", "formatted_phone_number": "32 258 02 11", "location": {"lat": 50.267863, "lng": 19.024895}, "formatted_address": "aleja Korfantego 51, Katowice, Polska", "emails": [], "contact_page": ["http://www.lcc.com.pl/kontakt.php"], "international_phone_number": "+48 32 258 02 11", "website": "http://www.lcc.com.pl/", "address_components": {"street_number": "51", "country": "Poland", "city": "Katowice", "postal_code": null, "state": "\u015bl\u0105skie", "route": "aleja Korfantego"}},
{"name": "Biuro Podr\u00f3\u017cy Delta Travel Transport sp.zo.o.", "formatted_phone_number": "32 206 80 02", "location": {"lat": 50.257517, "lng": 19.024716}, "formatted_address": "Mariacka 1, Katowice, Polska", "emails": [], "contact_page": ["http://www.delta-travel.pl/kontakt.html"], "international_phone_number": "+48 32 206 80 02", "website": "http://www.delta-travel.pl/", "address_components": {"street_number": "1", "country": "Poland", "city": "Katowice", "postal_code": "40-014", "state": "\u015bl\u0105skie", "route": "Mariacka"}},
{"name": "PTTK. G\u00f3rno\u015bl\u0105ski Oddzia\u0142", "formatted_phone_number": "32 253 03 62", "location": {"lat": 50.258618, "lng": 19.022524}, "formatted_address": "Staromiejska 4, Katowice, Polska", "emails": [], "contact_page": [], "international_phone_number": "+48 32 253 03 62", "website": "http://www.pttk.katowice.pl/", "address_components": {"street_number": "4", "country": "Poland", "city": "Katowice", "postal_code": null, "state": "\u015bl\u0105skie", "route": "Staromiejska"}},
{"name": "Duszpasterstwo Pielgrzymkowe Diecezji Katowickiej", "formatted_phone_number": "32 356 90 50", "location": {"lat": 50.257525, "lng": 19.03452}, "formatted_address": "Warszawska 58, Katowice, Polska", "emails": [], "contact_page": [], "international_phone_number": "+48 32 356 90 50", "website": "http://www.pielgrzymki.katowice.pl/", "address_components": {"street_number": "58", "country": "Poland", "city": "Katowice", "postal_code": null, "state": "\u015bl\u0105skie", "route": "Warszawska"}},
{"name": "Family Tour. Biuro podr\u00f3\u017cy", "formatted_phone_number": "32 781 64 44", "location": {"lat": 50.257345, "lng": 19.035089}, "formatted_address": "Warszawska 67, Katowice, Polska", "emails": [], "contact_page": [], "international_phone_number": "+48 32 781 64 44", "website": [], "address_components": {"street_number": "67", "country": "Poland", "city": "Katowice", "postal_code": null, "state": "\u015bl\u0105skie", "route": "Warszawska"}},
{"name": "Wolta s.c. Biuro podr\u00f3\u017cy", "formatted_phone_number": "32 258 97 88", "location": {"lat": 50.26833, "lng": 19.023171}, "formatted_address": "Plac Grunwaldzki 4, Katowice, Polska", "emails": [], "contact_page": ["http://wolta.com.pl/page_contacts.html"], "international_phone_number": "+48 32 258 97 88", "website": "http://wolta.com.pl/", "address_components": {"street_number": "4", "country": "Poland", "city": "Katowice", "postal_code": null, "state": "\u015bl\u0105skie", "route": "Plac Grunwaldzki"}},
{"name": "Krzysztof K. Biuro podr\u00f3\u017cy", "formatted_phone_number": "32 206 97 70", "location": {"lat": 50.259646, "lng": 19.019603}, "formatted_address": "3 Maja 7, Katowice, Polska", "emails": [], "contact_page": [], "international_phone_number": "+48 32 206 97 70", "website": [], "address_components": {"street_number": "7", "country": "Poland", "city": "Katowice", "postal_code": null, "state": "\u015bl\u0105skie", "route": "3 Maja"}},
{"name": "Almatur", "formatted_phone_number": "32 259 64 18", "location": {"lat": 50.259646, "lng": 19.019603}, "formatted_address": "3 Maja 7, Katowice, Polska", "emails": [], "contact_page": ["http://www.almatur.katowice.pl/pl/punkty-sprzedazy/biuro/katowice"], "international_phone_number": "+48 32 259 64 18", "website": "http://www.almatur.katowice.pl/", "address_components": {"street_number": "7", "country": "Poland", "city": "Katowice", "postal_code": null, "state": "\u015bl\u0105skie", "route": "3 Maja"}},
{"name": "Pantur. Biuro podr\u00f3\u017cy", "formatted_phone_number": "32 253 01 78", "location": {"lat": 50.259477, "lng": 19.019457}, "formatted_address": "3 Maja 20, Katowice, Polska", "emails": [], "contact_page": ["http://www.pantur.pl/kontakt.html"], "international_phone_number": "+48 32 253 01 78", "website": "http://www.pantur.pl/", "address_components": {"street_number": "20", "country": "Poland", "city": "Katowice", "postal_code": null, "state": "\u015bl\u0105skie", "route": "3 Maja"}},
{"name": "Pod Egid\u0105", "formatted_phone_number": "784 379 530", "location": {"lat": 50.259624, "lng": 19.019986}, "formatted_address": "3 Maja 5, Katowice, Polska", "emails": [], "contact_page": [], "international_phone_number": "+48 784 379 530", "website": [], "address_components": {"street_number": "5", "country": "Poland", "city": "Katowice", "postal_code": "40-097", "state": "\u015bl\u0105skie", "route": "3 Maja"}},
{"name": "Twoje Podr\u00f3\u017ce s.c. Agencja turystyczna", "formatted_phone_number": "32 253 87 00", "location": {"lat": 50.256109, "lng": 19.024876}, "formatted_address": "Wojew\u00f3dzka 28, Katowice, Polska", "emails": [], "contact_page": ["http://www.twoje-podroze.pl/kontakt.html"], "international_phone_number": "+48 32 253 87 00", "website": "http://www.twoje-podroze.pl/", "address_components": {"street_number": "28", "country": "Poland", "city": "Katowice", "postal_code": null, "state": "\u015bl\u0105skie", "route": "Wojew\u00f3dzka"}},
{"name": "Agencja turystyczna \"Pasja\"", "formatted_phone_number": "32 601 20 00", "location": {"lat": 50.259487, "lng": 19.01922}, "formatted_address": "3 Maja 22, Katowice, Polska", "emails": [], "contact_page": [], "international_phone_number": "+48 32 601 20 00", "website": [], "address_components": {"street_number": "22", "country": "Poland", "city": "Katowice", "postal_code": "40-095", "state": "\u015bl\u0105skie", "route": "3 Maja"}},
{"name": "Explorer Tour Operator Poland", "formatted_phone_number": "32 609 40 32", "location": {"lat": 50.257936, "lng": 19.037898}, "formatted_address": "1 Maja 9, Katowice, Polska", "emails": [], "contact_page": ["http://www.egzotycznewycieczki.pl/contact"], "international_phone_number": "+48 32 609 40 32", "website": "http://www.egzotycznewycieczki.pl/", "address_components": {"street_number": "9", "country": "Poland", "city": "Katowice", "postal_code": "40-001", "state": "\u015bl\u0105skie", "route": "1 Maja"}},
{"name": "Explorer - Egzotyczne Wycieczki", "formatted_phone_number": "32 609 40 32", "location": {"lat": 50.257936, "lng": 19.037899}, "formatted_address": "1 Maja 9, Katowice, Poland", "emails": [], "contact_page": ["http://www.egzotycznewycieczki.pl/contact"], "international_phone_number": "+48 32 609 40 32", "website": "http://www.egzotycznewycieczki.pl/", "address_components": {"street_number": "9", "country": "Poland", "city": "Katowice", "postal_code": null, "state": "Silesian Voivodeship", "route": "1 Maja"}},
{"name": "Costa Travel. Stach A.", "formatted_phone_number": "32 206 84 94", "location": {"lat": 50.256219, "lng": 19.023523}, "formatted_address": "Wojew\u00f3dzka 18, Katowice, Polska", "emails": [], "contact_page": [], "international_phone_number": "+48 32 206 84 94", "website": [], "address_components": {"street_number": "18", "country": "Poland", "city": "Katowice", "postal_code": null, "state": "\u015bl\u0105skie", "route": "Wojew\u00f3dzka"}},
{"name": "Abraksas. Biuro podr\u00f3\u017cy", "formatted_phone_number": "32 781 79 37", "location": {"lat": 50.260757, "lng": 19.018097}, "formatted_address": "Stawowa 3, Katowice, Polska", "emails": ["<urlopen error unknown url type: http error 403>"], "contact_page": ["HTTP Error 403: Forbidden"], "international_phone_number": "+48 32 781 79 37", "website": "http://abraksas.pl/", "address_components": {"street_number": "3", "country": "Poland", "city": "Katowice", "postal_code": null, "state": "\u015bl\u0105skie", "route": "Stawowa"}},
{"name": "Biuro Podr\u00f3\u017cy INDEX", "formatted_phone_number": "32 258 35 24", "location": {"lat": 50.260727, "lng": 19.018074}, "formatted_address": "Stawowa 5, Katowice, Polska", "emails": [], "contact_page": ["http://www.indexpolska.com.pl/kontakt.html"], "international_phone_number": "+48 32 258 35 24", "website": "http://www.indexpolska.com.pl/", "address_components": {"street_number": "5", "country": "Poland", "city": "Katowice", "postal_code": "40-095", "state": "\u015bl\u0105skie", "route": "Stawowa"}},
{"name": "Jadran Travel Sp z o.o.", "formatted_phone_number": "519 395 478", "location": {"lat": 50.260361, "lng": 19.018103}, "formatted_address": "Stawowa 7, Katowice, Polska", "emails": [], "contact_page": ["http://www.jadrantravel.pl/kontakt.html"], "international_phone_number": "+48 519 395 478", "website": "http://www.jadrantravel.pl/", "address_components": {"street_number": "7", "country": "Poland", "city": "Katowice", "postal_code": "40-095", "state": "\u015bl\u0105skie", "route": "Stawowa"}},
{"name": "Nomad. Cio\u0142czyk G.", "formatted_phone_number": "32 601 20 19", "location": {"lat": 50.260361, "lng": 19.018103}, "formatted_address": "Stawowa 7, Katowice, Polska", "emails": [], "contact_page": [], "international_phone_number": "+48 32 601 20 19", "website": [], "address_components": {"street_number": "7", "country": "Poland", "city": "Katowice", "postal_code": null, "state": "\u015bl\u0105skie", "route": "Stawowa"}},
{"name": "Biuro podr\u00f3\u017cy Euro-Rejs Sp. z o.o.", "formatted_phone_number": "32 253 50 02", "location": {"lat": 50.256258, "lng": 19.023025}, "formatted_address": "Wojew\u00f3dzka 14, Katowice, Polska", "emails": [], "contact_page": [], "international_phone_number": "+48 32 253 50 02", "website": "http://www.eurorejs.pl/", "address_components": {"street_number": "14", "country": "Poland", "city": "Katowice", "postal_code": "40-026", "state": "\u015bl\u0105skie", "route": "Wojew\u00f3dzka"}},
{"name": "Biuro Podr\u00f3\u017cy PL TRAVEL", "formatted_phone_number": "798 431 346", "location": {"lat": 50.256258, "lng": 19.023025}, "formatted_address": "Wojew\u00f3dzka 14, Katowice, Polska", "emails": [], "contact_page": [], "international_phone_number": "+48 798 431 346", "website": "http://www.pltravel.pl/", "address_components": {"street_number": "14", "country": "Poland", "city": "Katowice", "postal_code": "40-026", "state": "\u015bl\u0105skie", "route": "Wojew\u00f3dzka"}},
{"name": "Wycieczki dla firm - Katowice", "formatted_phone_number": "798 431 346", "location": {"lat": 50.256258, "lng": 19.023025}, "formatted_address": "Wojew\u00f3dzka 14, Katowice, Polska", "emails": [], "contact_page": [], "international_phone_number": "+48 798 431 346", "website": "http://www.wyjazdygrupowe.eu/", "address_components": {"street_number": "14", "country": "Poland", "city": "Katowice", "postal_code": "40-015", "state": "\u015bl\u0105skie", "route": "Wojew\u00f3dzka"}},
{"name": "Maja Travel. Przedsi\u0119biorstWo turystyczno - us\u0142ugowe", "formatted_phone_number": "32 258 99 36", "location": {"lat": 50.260008, "lng": 19.018113}, "formatted_address": "Stawowa 11, Katowice, Polska", "emails": [], "contact_page": [], "international_phone_number": "+48 32 258 99 36", "website": [], "address_components": {"street_number": "11", "country": "Poland", "city": "Katowice", "postal_code": null, "state": "\u015bl\u0105skie", "route": "Stawowa"}},
{"name": "Biuro Turystyczne M\u0104DELTRANS - o. Katowice", "formatted_phone_number": "32 748 47 20", "location": {"lat": 50.262307, "lng": 19.017373}, "formatted_address": "Skargi 4, Katowice, Polska", "emails": [], "contact_page": [], "international_phone_number": "+48 32 748 47 20", "website": [], "address_components": {"street_number": "4", "country": "Poland", "city": "Katowice", "postal_code": "40-091", "state": "\u015bl\u0105skie", "route": "Skargi"}},
{"name": "Biuro Podr\u00f3\u017cy, Katowice - Travelplanet.pl SA", "formatted_phone_number": "71 771 76 35", "location": {"lat": 50.259323, "lng": 19.01839}, "formatted_address": "Poland", "emails": [], "contact_page": ["http://www.travelplanet.pl/kontakt/"], "international_phone_number": "+48 71 771 76 35", "website": "http://www.travelplanet.pl/pok/biuro-podrozy-galeria-katowicka.html", "address_components": {"street_number": null, "country": "Poland", "city": null, "postal_code": "40-098", "state": null, "route": null}},
{"name": "Metro. Wczasy, wycieczki, bilety", "formatted_phone_number": "32 253 90 28", "location": {"lat": 50.261296, "lng": 19.017286}, "formatted_address": "40-093 Katowice; Chopina 1, Polska", "emails": ["'utf-8' codec can't decode bytes in position 159-160: invalid continuation byte"], "contact_page": ["http://www.metro.turystyka.pl/index.php?mainmodule=Ucs/Menu/untSubpages.php&id=00000010H46X620D5F26OEWIM74T58Z4", "http://www.metro.turystyka.pl/index.php?mainmodule=Ucs/Menu/untSubpages.php&id=00000010H46X620D5F26OEWIM74T58Z4&"], "international_phone_number": "+48 32 253 90 28", "website": "http://www.metro.turystyka.pl/", "address_components": {"street_number": null, "country": "Poland", "city": null, "postal_code": "40-093", "state": null, "route": null}},
{"name": "MEGA TRAVEL sp. z o.o. Biuro Podr\u00f3\u017cy", "formatted_phone_number": "32 781 50 07", "location": {"lat": 50.256218, "lng": 19.021925}, "formatted_address": "Wojew\u00f3dzka 7, Katowice, Polska", "emails": [], "contact_page": ["http://www.megatravel.pl/kontakt.php"], "international_phone_number": "+48 32 781 50 07", "website": "http://www.megatravel.pl/", "address_components": {"street_number": "7", "country": "Poland", "city": "Katowice", "postal_code": "40-026", "state": "\u015bl\u0105skie", "route": "Wojew\u00f3dzka"}},
{"name": "OASIS TOURS Sp. z o.o.", "formatted_phone_number": "32 350 01 15", "location": {"lat": 50.26174, "lng": 19.016797}, "formatted_address": "S\u0142owackiego 15, (wej\u015bcie od ulicy Mickiewiecz), Katowice, Polska", "emails": [], "contact_page": ["http://www.oasistours.com.pl/strefa-agenta/kontakt/", "http://www.oasistours.com.pl/o-nas/kontakt/"], "international_phone_number": "+48 32 350 01 15", "website": "http://www.oasistours.com.pl/", "address_components": {"street_number": null, "country": "Poland", "city": "Katowice", "postal_code": "40-093", "state": null, "route": null}},
{"name": "Beti Travel", "formatted_phone_number": "32 259 73 24", "location": {"lat": 50.262644, "lng": 19.016594}, "formatted_address": "Skargi 8, Katowice, Polska", "emails": [], "contact_page": ["http://betitravel.com.pl/p,kontakt"], "international_phone_number": "+48 32 259 73 24", "website": "http://betitravel.com.pl/", "address_components": {"street_number": "8", "country": "Poland", "city": "Katowice", "postal_code": null, "state": "\u015bl\u0105skie", "route": "Skargi"}},
{"address_components": {"city": "Katowice", "state": "\u015bl\u0105skie", "route": "Uniwersytecka", "postal_code": null, "country": "Poland", "street_number": "13"}, "name": "Marco Tour", "location": {"lng": 19.025253, "lat": 50.261548}, "formatted_phone_number": "32 603 01 41", "website": "http://www.marcotour.pl/", "formatted_address": "Uniwersytecka 13, Katowice, Polska", "emails": [], "contact_page": ["http://www.marcotour.pl/p,kontakt"], "international_phone_number": "+48 32 603 01 41"},
{"address_components": {"city": "Katowice", "state": "\u015bl\u0105skie", "route": "aleja Korfantego", "postal_code": null, "country": "Poland", "street_number": "9"}, "name": "Hogg Robinson Polska Sp. z o.o.", "location": {"lng": 19.023375, "lat": 50.262148}, "formatted_phone_number": "32 259 63 15", "website": "http://www.hrgworldwide.com/pl-pl", "formatted_address": "aleja Korfantego 9, Katowice, Polska", "emails": [], "contact_page": ["http://www.hrgworldwide.com/Contact-us/Pages/Local-market-contacts.aspx", "http://www.hrgworldwide.com/pl-pl/pl-pl/Contact-us/Pages/default.aspx", "http://www.hrgworldwide.com/pl-pl/Contact-us/Pages/default.aspx"], "international_phone_number": "+48 32 259 63 15"},
{"address_components": {"city": "Katowice", "state": "\u015bl\u0105skie", "route": "Moniuszki", "postal_code": null, "country": "Poland", "street_number": "7"}, "name": "Podr\u00f3\u017ce. Sp. z o.o. Agencja turystyczna", "location": {"lng": 19.023908, "lat": 50.26061}, "formatted_phone_number": "32 259 70 25", "website": "http://podroze.katowice.pl/", "formatted_address": "Moniuszki 7, Katowice, Polska", "emails": [], "contact_page": [], "international_phone_number": "+48 32 259 70 25"},
{"address_components": {"city": "Katowice", "state": null, "route": null, "postal_code": "40-005", "country": "Poland", "street_number": null}, "name": "Itaka", "location": {"lng": 19.023148, "lat": 50.260892}, "formatted_phone_number": "32 608 98 00", "website": "http://www.itaka.pl/", "formatted_address": "ul. Moniuszki 4/2, Katowice, Polska", "emails": [], "contact_page": ["http://www.itaka.pl/kontakt/index.php"], "international_phone_number": "+48 32 608 98 00"},
{"address_components": {"city": "Katowice", "state": "\u015bl\u0105skie", "route": "Moniuszki", "postal_code": null, "country": "Poland", "street_number": "4"}, "name": "Biuro Podr\u00f3\u017cy Sindbad", "location": {"lng": 19.023146, "lat": 50.260892}, "formatted_phone_number": "32 253 50 33", "website": "http://www.sindbadkatowice.pl/", "formatted_address": "Moniuszki 4, Katowice, Polska", "emails": [], "contact_page": ["http://www.sindbadkatowice.pl/szybki_kontakt", "http://www.sindbadkatowice.pl/strona/kontakt"], "international_phone_number": "+48 32 253 50 33"},
{"address_components": {"city": "Katowice", "state": "\u015bl\u0105skie", "route": "Warszawska", "postal_code": null, "country": "Poland", "street_number": "32"}, "name": "Morgana Tours", "location": {"lng": 19.03024, "lat": 50.25829}, "formatted_phone_number": "519 077 999", "website": "http://morganatours.pl/", "formatted_address": "Warszawska 32, Katowice, Polska", "emails": [], "contact_page": [], "international_phone_number": "+48 519 077 999"},
{"address_components": {"city": "Katowice", "state": null, "route": "Moniuszki", "postal_code": "40", "country": "Poland", "street_number": "2"}, "name": "Salon Sprzeda\u017cy Wezyr Holidays", "location": {"lng": 19.02291, "lat": 50.26101}, "formatted_phone_number": "32 782 30 65", "website": "http://www.wezyrholidays.pl/", "formatted_address": "Moniuszki 2, Katowice, Polska", "emails": [], "contact_page": ["http://www.wezyrholidays.pl/o_wezyrholidays#siedzibatab"], "international_phone_number": "+48 32 782 30 65"},
{"address_components": {"city": "Katowice", "state": "\u015bl\u0105skie", "route": "Moniuszki", "postal_code": "40-005", "country": "Poland", "street_number": "2"}, "name": "Travel Caffe Biuro Podr\u00f3\u017cy", "location": {"lng": 19.022942, "lat": 50.260917}, "formatted_phone_number": "32 258 05 04", "website": "http://www.travelcaffe.pl/", "formatted_address": "Moniuszki 2, Katowice, Polska", "emails": [], "contact_page": ["http://www.travelcaffe.pl/kontakt.html"], "international_phone_number": "+48 32 258 05 04"},
{"address_components": {"city": "Katowice", "state": "\u015bl\u0105skie", "route": "aleja Korfantego", "postal_code": null, "country": "Poland", "street_number": "6"}, "name": "Best travel. Centrum podr\u00f3\u017cy", "location": {"lng": 19.022171, "lat": 50.26224}, "formatted_phone_number": "32 253 81 29", "website": [], "formatted_address": "aleja Korfantego 6, Katowice, Polska", "emails": [], "contact_page": [], "international_phone_number": "+48 32 253 81 29"},
{"address_components": {"city": "Katowice", "state": "\u015bl\u0105skie", "route": "aleja Korfantego", "postal_code": "40-005", "country": "Poland", "street_number": "3"}, "name": "Rainbow Tours SA", "location": {"lng": 19.022797, "lat": 50.260588}, "formatted_phone_number": "32 206 20 68", "website": "http://www.rainbowtours.pl/", "formatted_address": "aleja Korfantego 3, Katowice, Polska", "emails": [], "contact_page": ["http://www.rainbowtours.pl/kontakt"], "international_phone_number": "+48 32 206 20 68"},
{"address_components": {"city": "Katowice", "state": "\u015bl\u0105skie", "route": "Starowiejska", "postal_code": null, "country": "Poland", "street_number": "11"}, "name": "ZNP Logos Tour Sp. z o.o. Oddzia\u0142", "location": {"lng": 19.027749, "lat": 50.257892}, "formatted_phone_number": "32 253 78 58", "website": "http://logostour.pl/", "formatted_address": "Starowiejska 11, Katowice, Polska", "emails": [], "contact_page": ["http://logostour.pl/web/guest/kontakt", "http://logostour.pl/kontakt"], "international_phone_number": "+48 32 253 78 58"},
{"address_components": {"city": "Katowice", "state": "\u015bl\u0105skie", "route": "\u015bwi\u0119tego Stanis\u0142awa", "postal_code": null, "country": "Poland", "street_number": "8"}, "name": "Dolomity Tour. Biuro podr\u00f3\u017cy", "location": {"lng": 19.026408, "lat": 50.25807}, "formatted_phone_number": "32 206 96 65", "website": "http://www.dolomity.com.pl/", "formatted_address": "\u015bwi\u0119tego Stanis\u0142awa 8, Katowice, Polska", "emails": [], "contact_page": ["http://www.dolomity.com.pl/kontakt"], "international_phone_number": "+48 32 206 96 65"},
{"address_components": {"city": "Katowice", "state": "\u015bl\u0105skie", "route": "Warszawska", "postal_code": null, "country": "Poland", "street_number": "3"}, "name": "Atas Sp. z o.o. Agencja turystyczna", "location": {"lng": 19.023904, "lat": 50.259047}, "formatted_phone_number": "32 255 24 84", "website": "http://czas-na-malte.pl/", "formatted_address": "Warszawska 3, Katowice, Polska", "emails": [], "contact_page": [], "international_phone_number": "+48 32 255 24 84"},
{"address_components": {"city": "Katowice", "state": "\u015bl\u0105skie", "route": "aleja Korfantego", "postal_code": null, "country": "Poland", "street_number": "38"}, "name": "G\u00f3rno\u015bl\u0105skie Towarzystwo Lotnicze S.A.", "location": {"lng": 19.023572, "lat": 50.266417}, "formatted_phone_number": "32 201 06 33", "website": "http://www.gtl.com.pl/", "formatted_address": "aleja Korfantego 38, Katowice, Polska", "emails": [], "contact_page": [], "international_phone_number": "+48 32 201 06 33"},
{"address_components": {"city": "Katowice", "state": "\u015bl\u0105skie", "route": "Dyrekcyjna", "postal_code": null, "country": "Poland", "street_number": "9"}, "name": "Astra Tour. Biuro podr\u00f3\u017cy", "location": {"lng": 19.023464, "lat": 50.258914}, "formatted_phone_number": "32 258 72 60", "website": "http://www.astratour.pl/", "formatted_address": "Dyrekcyjna 9, Katowice, Polska", "emails": [], "contact_page": ["http://www.astratour.pl/p,Kontakt"], "international_phone_number": "+48 32 258 72 60"},
{"address_components": {"city": "Katowice", "state": "\u015bl\u0105skie", "route": "Mariacka", "postal_code": null, "country": "Poland", "street_number": "12"}, "name": "Okr\u0119gowe biuro turystyki Polskiego Zwi\u0105zku Motorowego", "location": {"lng": 19.026462, "lat": 50.257547}, "formatted_phone_number": "32 253 74 46", "website": "http://www.pzmot.katowice.pl/", "formatted_address": "Mariacka 12, Katowice, Polska", "emails": ["'utf-8' codec can't decode byte 0xb3 in position 567: invalid start byte"], "contact_page": ["http://www.pzmot.katowice.pl/dane_kontaktowe.html"], "international_phone_number": "+48 32 253 74 46"},
{"address_components": {"city": "Katowice", "state": "\u015bl\u0105skie", "route": "Dyrekcyjna", "postal_code": null, "country": "Poland", "street_number": "10"}, "name": "Globus Sp. z o.o. Biuro podr\u00f3\u017cy i us\u0142ug. Oddzia\u0142", "location": {"lng": 19.023139, "lat": 50.258886}, "formatted_phone_number": "32 255 17 83", "website": "http://www.globus.travel.pl/", "formatted_address": "Dyrekcyjna 10, Katowice, Polska", "emails": [], "contact_page": [], "international_phone_number": "+48 32 255 17 83"},
{"address_components": {"city": "Katowice", "state": "\u015bl\u0105skie", "route": "Mariacka", "postal_code": "40-014", "country": "Poland", "street_number": "19"}, "name": "Itaka", "location": {"lng": 19.026546, "lat": 50.257429}, "formatted_phone_number": "32 358 37 60", "website": "http://www.itaka.pl/", "formatted_address": "Mariacka 19, Katowice, Polska", "emails": [], "contact_page": ["http://www.itaka.pl/kontakt/index.php"], "international_phone_number": "+48 32 358 37 60"},
{"address_components": {"city": "Katowice", "state": "\u015bl\u0105skie", "route": "Miel\u0119ckiego", "postal_code": null, "country": "Poland", "street_number": "7"}, "name": "Iwtravel. Biuro podr\u00f3\u017cy", "location": {"lng": 19.024514, "lat": 50.258014}, "formatted_phone_number": "32 710 60 02", "website": [], "formatted_address": "Miel\u0119ckiego 7, Katowice, Polska", "emails": [], "contact_page": [], "international_phone_number": "+48 32 710 60 02"},
{"address_components": {"city": "Katowice", "state": "\u015bl\u0105skie", "route": "Andrzeja Miel\u0119ckiego", "postal_code": null, "country": "Poland", "street_number": "7"}, "name": "Natura Tour Sp. z o.o. Biuro turystyki", "location": {"lng": 19.024514, "lat": 50.258014}, "formatted_phone_number": "32 710 56 22", "website": "http://www.naturatour.pl/", "formatted_address": "Andrzeja Miel\u0119ckiego 7, Katowice, Polska", "emails": [], "contact_page": [], "international_phone_number": "+48 32 710 56 22"},
{"name": "Marco Tour", "location": {"lat": 50.261548, "lng": 19.025253}, "contact_page": ["http://www.marcotour.pl/p,kontakt"], "formatted_address": "Uniwersytecka 13, Katowice, Polska", "formatted_phone_number": "32 603 01 41", "international_phone_number": "+48 32 603 01 41", "address_components": {"state": "\u015bl\u0105skie", "street_number": "13", "country": "Poland", "postal_code": null, "route": "Uniwersytecka", "city": "Katowice"}, "website": "http://www.marcotour.pl/", "emails": ["biuro@marcotour.pl"]},
{"name": "Hogg Robinson Polska Sp. z o.o.", "location": {"lat": 50.262148, "lng": 19.023375}, "contact_page": ["http://www.hrgworldwide.com/pl-pl/pl-pl/Contact-us/Pages/default.aspx", "http://www.hrgworldwide.com/pl-pl/Contact-us/Pages/default.aspx", "http://www.hrgworldwide.com/Contact-us/Pages/Local-market-contacts.aspx"], "formatted_address": "aleja Korfantego 9, Katowice, Polska", "formatted_phone_number": "32 259 63 15", "international_phone_number": "+48 32 259 63 15", "address_components": {"state": "\u015bl\u0105skie", "street_number": "9", "country": "Poland", "postal_code": null, "route": "aleja Korfantego", "city": "Katowice"}, "website": "http://www.hrgworldwide.com/pl-pl", "emails": ["felix.goh@hrgworldwide.com", "office@rs.hrgworldwide.com", "admin@ke.hrgworldwide.com", "infohrg@mx.hrgworldwide.com", "Info@ie.hrgworldwide.com", "20jeanmarie.behou@olizair.com", "business.travel.at@hrgworldwide.com", "partner.management.uk@hrgworldwide.com", "marketing.uk@hrgworldwide.com", "sales@nz.hrgworldwide.com", "charlie.cervera@co.hrgworldwide.com", "office@ks.hrgworldwide.com", "vamerica@viajesamerica.com.ni", "yit@y.yet.ye", "gen.info@gh.hrgworldwide.com", "info@nl.hrgworldwide.com", "info.hu@hrgworldwide.com", "info@kz.hrgworldwide.com", "info@sa.hrgworldwide.com", "20Amani.fouad@eg.hrgworldwide.com", "hrgtanzania@bonvoyagetz.com", "info@uz.hrgworldwide.com", "info.na@hrgworldwide.com", "hr.hk@hrgworldwide.com", "ahmed.aghbari@yittravel.com", "maneesh.gupta@af.hrgworldwide.com", "hrgiran@msn.com", "Jacky.Ebenau@rennies.hrgworldwide.com", "sales@cm.hrgworldwide.com", "sherry.oh@kr.hrgworldwide.com", "contact.cn@hrgworldwide.com", "enquiries.hk@hrgworldwide.com", "lilongwe@mw.hrgworldwide.com", "hrgportugal@viagenselcorteingles.pt", "info@lk.hrgworldwide.com", "gcrespo@tropricaltours.com.bo", "20cyrille.djevesso@olizair.com", "marketing.finland@hrgworldwide.com", "info@lv.hrgworldwide.com", "hrg.marketing.ch@hrgworldwide.com", "info@ar.hrgworldwide.com", "sales@corporate-te.com", "arjontravel@rogers.com", "info@sn.hrgworldwide.com", "office@lt.hrgworldwide.com", "marketing.cz@hrgworldwide.com", "request@ua.hrgworldwide.com", "info@kw.hrgworldwide.com", "aminwm@pk.hrgworldwide.com", "20tracey.larkan@renniestravel.com", "amna.mukhtar@daral-sd.com", "info.sk@hrgworldwide.com", "20info@daral-sd.com", "zinha.carmo@hullblyth-angola.com", "dnata@dnatatravel.bh", "marketing.pl@hrgworldwide.com", "marketing.norway@hrgworldwide.com", "marketing.it@hrgworldwide.com", "ibc@ibc.ru", "rami.ravich@il.hrgworldwide.com", "20Selim.boutros@lb.hrgworldwide.com", "20nidal.khalaf@nahas.sy", "muriel.khayat@hrgworldwide.com", "wanitoursarl@yahoo.fr", "office@mk.hrgworldwide.com", "hrg.vaduz.li@hrgworldwide.com", "georgia@ua.hrgworldwide.com", "george.fawzi@eg.hrgworldwide.com", "info@be.hrgworldwide.com", "marketing.sweden@hrgworldwide.com", "odysseas@cy.hrgworldwide.com", "rennies@renniestravel.co.zw", "info@ee.hrgworldwide.com", "margaret.mcdonald@bw.hrgworldwide.com", "office@si.hrgworldwide.com", "20santiago.cervera@co.hrgworldwide.com", "info@tripolisail.com", "info@br.hrgworldwide.com", "cindy.villabona@ph.hrgworldwide.com", "johna@om.hrgworldwide.com", "info.ru@hrgworldwide.com", "20tania.desouza@olizair.com", "dnata@uae.hrgworldwide.com", "brigitte_banimba@yahoo.fr", "hrgteam@flightravel.net", "logi.george@ae.hrgworldwide.com", "anaines.fuentes@ptravel.com.uy", "info@es.hrgworldwide.com", "20hrgksa@dnata.com.sa", "halamir@dta.jo", "info@lu.hrgworldwide.com", "info.de@hrgworldwide.com", "Headoffice.au@hrgworldwide.com", "Denmark.btc@hrgworldwide.com", "vedrana.zizic@ba.hrgworldwide.com", "monica.moreira@pe.hrgworldwide.com", "paula.pincheira@cl.hrgworldwide.com", "gm-sec@nahastt.com", "vid.benko@hr.hrgworldwide.com", "sofiam@aquarium.co.mz", "20lionel.fernandes@kw.hrgworldwide.com", "Elizabeth.mani@india.hrgworldwide.com", "anzoumana.gbane@olizair.com", "nadine.boutros@lb.hrgworldwide.com", "reservations@dnata.com.qa", "info@ng.hrgworldwide.com", "office@bg.hrgworldwide.com", "presidencia@molinaviajes.com"]},
{"name": "Podr\u00f3\u017ce. Sp. z o.o. Agencja turystyczna", "location": {"lat": 50.26061, "lng": 19.023908}, "contact_page": [], "formatted_address": "Moniuszki 7, Katowice, Polska", "formatted_phone_number": "32 259 70 25", "international_phone_number": "+48 32 259 70 25", "address_components": {"state": "\u015bl\u0105skie", "street_number": "7", "country": "Poland", "postal_code": null, "route": "Moniuszki", "city": "Katowice"}, "website": "http://podroze.katowice.pl/", "emails": []},
{"name": "Itaka", "location": {"lat": 50.260892, "lng": 19.023148}, "contact_page": ["http://www.itaka.pl/kontakt/index.php"], "formatted_address": "ul. Moniuszki 4/2, Katowice, Polska", "formatted_phone_number": "32 608 98 00", "international_phone_number": "+48 32 608 98 00", "address_components": {"state": null, "street_number": null, "country": "Poland", "postal_code": "40-005", "route": null, "city": "Katowice"}, "website": "http://www.itaka.pl/", "emails": []},
{"name": "Biuro Podr\u00f3\u017cy Sindbad", "location": {"lat": 50.260892, "lng": 19.023146}, "contact_page": ["http://www.sindbadkatowice.pl/strona/kontakt", "http://www.sindbadkatowice.pl/szybki_kontakt"], "formatted_address": "Moniuszki 4, Katowice, Polska", "formatted_phone_number": "32 253 50 33", "international_phone_number": "+48 32 253 50 33", "address_components": {"state": "\u015bl\u0105skie", "street_number": "4", "country": "Poland", "postal_code": null, "route": "Moniuszki", "city": "Katowice"}, "website": "http://www.sindbadkatowice.pl/", "emails": ["bytom@sindbad.pl"]},
{"name": "Morgana Tours", "location": {"lat": 50.25829, "lng": 19.03024}, "contact_page": [], "formatted_address": "Warszawska 32, Katowice, Polska", "formatted_phone_number": "519 077 999", "international_phone_number": "+48 519 077 999", "address_components": {"state": "\u015bl\u0105skie", "street_number": "32", "country": "Poland", "postal_code": null, "route": "Warszawska", "city": "Katowice"}, "website": "http://morganatours.pl/", "emails": []},
{"name": "Salon Sprzeda\u017cy Wezyr Holidays", "location": {"lat": 50.26101, "lng": 19.02291}, "contact_page": ["http://www.wezyrholidays.pl/o_wezyrholidays#siedzibatab"], "formatted_address": "Moniuszki 2, Katowice, Polska", "formatted_phone_number": "32 782 30 65", "international_phone_number": "+48 32 782 30 65", "address_components": {"state": null, "street_number": "2", "country": "Poland", "postal_code": "40", "route": "Moniuszki", "city": "Katowice"}, "website": "http://www.wezyrholidays.pl/", "emails": ["media@wezyrholidays.pl", "klient@wezyrholidays.pl", "agent@wezyrholidays.pl", "wspolpraca.agencyjna@wezyrholidays.pl", "praca@wezyrholidays.pl"]},
{"name": "Travel Caffe Biuro Podr\u00f3\u017cy", "location": {"lat": 50.260917, "lng": 19.022942}, "contact_page": ["http://www.travelcaffe.pl/kontakt.html"], "formatted_address": "Moniuszki 2, Katowice, Polska", "formatted_phone_number": "32 258 05 04", "international_phone_number": "+48 32 258 05 04", "address_components": {"state": "\u015bl\u0105skie", "street_number": "2", "country": "Poland", "postal_code": "40-005", "route": "Moniuszki", "city": "Katowice"}, "website": "http://www.travelcaffe.pl/", "emails": ["biuro@travelcaffe.pl"]},
{"name": "Best travel. Centrum podr\u00f3\u017cy", "location": {"lat": 50.26224, "lng": 19.022171}, "contact_page": [], "formatted_address": "aleja Korfantego 6, Katowice, Polska", "formatted_phone_number": "32 253 81 29", "international_phone_number": "+48 32 253 81 29", "address_components": {"state": "\u015bl\u0105skie", "street_number": "6", "country": "Poland", "postal_code": null, "route": "aleja Korfantego", "city": "Katowice"}, "website": [], "emails": []},
{"name": "Rainbow Tours SA", "location": {"lat": 50.260588, "lng": 19.022797}, "contact_page": ["http://www.rainbowtours.pl/kontakt"], "formatted_address": "aleja Korfantego 3, Katowice, Polska", "formatted_phone_number": "32 206 20 68", "international_phone_number": "+48 32 206 20 68", "address_components": {"state": "\u015bl\u0105skie", "street_number": "3", "country": "Poland", "postal_code": "40-005", "route": "aleja Korfantego", "city": "Katowice"}, "website": "http://www.rainbowtours.pl/", "emails": ["szkolenia@rainbowtours.edu.pl", "anna.malkowska@rainbowtours.pl", "grupy@rainbowtours.pl", "incentive@rainbowtours.pl", "sekretariat@rainbowtours.pl", "callcenter@rainbowtours.pl", "radomir.swiderski@rainbowtours.pl", "marketing@rainbowtours.pl", "webmaster@rainbowtours.pl"]},
{"name": "ZNP Logos Tour Sp. z o.o. Oddzia\u0142", "location": {"lat": 50.257892, "lng": 19.027749}, "contact_page": ["http://logostour.pl/kontakt", "http://logostour.pl/web/guest/kontakt"], "formatted_address": "Starowiejska 11, Katowice, Polska", "formatted_phone_number": "32 253 78 58", "international_phone_number": "+48 32 253 78 58", "address_components": {"state": "\u015bl\u0105skie", "street_number": "11", "country": "Poland", "postal_code": null, "route": "Starowiejska", "city": "Katowice"}, "website": "http://logostour.pl/", "emails": ["logos-kr@hotel-logos.pl", "bialystok@logostour.pl", "lodz@logostour.pl", "rzeszow@logostour.pl", "lublin@logostour.pl", "katowice@logostour.pl", "krakow@logostour.pl", "warszawa@logostour.pl", "biuro@logostour.pl", "olsztyn@logostour.pl", "gdansk@logostour.pl", "rezerwacja@hotel-logos.pl", "poznan@logostour.pl", "wroclaw@logostour.pl", "nowysacz@logostour.pl", "gliwice@logostour.pl"]},
{"name": "Dolomity Tour. Biuro podr\u00f3\u017cy", "location": {"lat": 50.25807, "lng": 19.026408}, "contact_page": ["http://www.dolomity.com.pl/kontakt"], "formatted_address": "\u015bwi\u0119tego Stanis\u0142awa 8, Katowice, Polska", "formatted_phone_number": "32 206 96 65", "international_phone_number": "+48 32 206 96 65", "address_components": {"state": "\u015bl\u0105skie", "street_number": "8", "country": "Poland", "postal_code": null, "route": "\u015bwi\u0119tego Stanis\u0142awa", "city": "Katowice"}, "website": "http://www.dolomity.com.pl/", "emails": []},
{"name": "Atas Sp. z o.o. Agencja turystyczna", "location": {"lat": 50.259047, "lng": 19.023904}, "contact_page": [], "formatted_address": "Warszawska 3, Katowice, Polska", "formatted_phone_number": "32 255 24 84", "international_phone_number": "+48 32 255 24 84", "address_components": {"state": "\u015bl\u0105skie", "street_number": "3", "country": "Poland", "postal_code": null, "route": "Warszawska", "city": "Katowice"}, "website": "http://czas-na-malte.pl/", "emails": []},
{"name": "G\u00f3rno\u015bl\u0105skie Towarzystwo Lotnicze S.A.", "location": {"lat": 50.266417, "lng": 19.023572}, "contact_page": [], "formatted_address": "aleja Korfantego 38, Katowice, Polska", "formatted_phone_number": "32 201 06 33", "international_phone_number": "+48 32 201 06 33", "address_components": {"state": "\u015bl\u0105skie", "street_number": "38", "country": "Poland", "postal_code": null, "route": "aleja Korfantego", "city": "Katowice"}, "website": "http://www.gtl.com.pl/", "emails": []},
{"name": "Astra Tour. Biuro podr\u00f3\u017cy", "location": {"lat": 50.258914, "lng": 19.023464}, "contact_page": ["http://www.astratour.pl/p,Kontakt"], "formatted_address": "Dyrekcyjna 9, Katowice, Polska", "formatted_phone_number": "32 258 72 60", "international_phone_number": "+48 32 258 72 60", "address_components": {"state": "\u015bl\u0105skie", "street_number": "9", "country": "Poland", "postal_code": null, "route": "Dyrekcyjna", "city": "Katowice"}, "website": "http://www.astratour.pl/", "emails": ["astratour@astratour.pl"]},
{"name": "Okr\u0119gowe biuro turystyki Polskiego Zwi\u0105zku Motorowego", "location": {"lat": 50.257547, "lng": 19.026462}, "contact_page": ["http://www.pzmot.katowice.pl/dane_kontaktowe.html"], "formatted_address": "Mariacka 12, Katowice, Polska", "formatted_phone_number": "32 253 74 46", "international_phone_number": "+48 32 253 74 46", "address_components": {"state": "\u015bl\u0105skie", "street_number": "12", "country": "Poland", "postal_code": null, "route": "Mariacka", "city": "Katowice"}, "website": "http://www.pzmot.katowice.pl/", "emails": ["'utf-8' codec can't decode byte 0xb3 in position 567: invalid start byte"]},
{"name": "Globus Sp. z o.o. Biuro podr\u00f3\u017cy i us\u0142ug. Oddzia\u0142", "location": {"lat": 50.258886, "lng": 19.023139}, "contact_page": [], "formatted_address": "Dyrekcyjna 10, Katowice, Polska", "formatted_phone_number": "32 255 17 83", "international_phone_number": "+48 32 255 17 83", "address_components": {"state": "\u015bl\u0105skie", "street_number": "10", "country": "Poland", "postal_code": null, "route": "Dyrekcyjna", "city": "Katowice"}, "website": "http://www.globus.travel.pl/", "emails": []},
{"name": "Itaka", "location": {"lat": 50.257429, "lng": 19.026546}, "contact_page": ["http://www.itaka.pl/kontakt/index.php"], "formatted_address": "Mariacka 19, Katowice, Polska", "formatted_phone_number": "32 358 37 60", "international_phone_number": "+48 32 358 37 60", "address_components": {"state": "\u015bl\u0105skie", "street_number": "19", "country": "Poland", "postal_code": "40-014", "route": "Mariacka", "city": "Katowice"}, "website": "http://www.itaka.pl/", "emails": []},
{"name": "Iwtravel. Biuro podr\u00f3\u017cy", "location": {"lat": 50.258014, "lng": 19.024514}, "contact_page": [], "formatted_address": "Miel\u0119ckiego 7, Katowice, Polska", "formatted_phone_number": "32 710 60 02", "international_phone_number": "+48 32 710 60 02", "address_components": {"state": "\u015bl\u0105skie", "street_number": "7", "country": "Poland", "postal_code": null, "route": "Miel\u0119ckiego", "city": "Katowice"}, "website": [], "emails": []},
{"name": "Natura Tour Sp. z o.o. Biuro turystyki", "location": {"lat": 50.258014, "lng": 19.024514}, "contact_page": ["http://www.naturatour.pl/pl/kontakt"], "formatted_address": "Andrzeja Miel\u0119ckiego 7, Katowice, Polska", "formatted_phone_number": "32 710 56 22", "international_phone_number": "+48 32 710 56 22", "address_components": {"state": "\u015bl\u0105skie", "street_number": "7", "country": "Poland", "postal_code": null, "route": "Andrzeja Miel\u0119ckiego", "city": "Katowice"}, "website": "http://www.naturatour.pl/", "emails": []},
{"name": "GTL S.A. Biuro podr\u00f3\u017cy. Agencja lotnicza", "location": {"lat": 50.266417, "lng": 19.023572}, "contact_page": [], "formatted_address": "aleja Korfantego 38, Katowice, Polska", "formatted_phone_number": "32 257 21 00", "international_phone_number": "+48 32 257 21 00", "address_components": {"state": "\u015bl\u0105skie", "street_number": "38", "country": "Poland", "postal_code": null, "route": "aleja Korfantego", "city": "Katowice"}, "website": [], "emails": []},
{"name": "BP. Agencja turystyczna", "location": {"lat": 50.258014, "lng": 19.024514}, "contact_page": ["http://bpwczasy.pl/index.php?mainmodule=Ucs/Menu/untSubpages.php&id=00000003VT27740NM283QS583MY8WEU1", "http://bpwczasy.pl/mailto:kontakt@bpwczasy.pl"], "formatted_address": "Andrzeja Miel\u0119ckiego 7, Katowice, Polska", "formatted_phone_number": "32 253 98 85", "international_phone_number": "+48 32 253 98 85", "address_components": {"state": "\u015bl\u0105skie", "street_number": "7", "country": "Poland", "postal_code": null, "route": "Andrzeja Miel\u0119ckiego", "city": "Katowice"}, "website": "http://bpwczasy.pl/", "emails": ["HTTP Error 404: Not Found"]},
{"name": "Sun & Fun Holidays Sp. z o.o. Oddzia\u0142", "location": {"lat": 50.257174, "lng": 19.031307}, "contact_page": ["http://www.sunfun.pl/kontakt"], "formatted_address": "Damrota 6, Katowice, Polska", "formatted_phone_number": "32 205 43 90", "international_phone_number": "+48 32 205 43 90", "address_components": {"state": "\u015bl\u0105skie", "street_number": "6", "country": "Poland", "postal_code": null, "route": "Damrota", "city": "Katowice"}, "website": "http://www.sunfun.pl/", "emails": ["rezerwacje@sunfun.pl", "info8@sunfun.pl", "faktury@sunfun.pl", "marta.paprocka@sunfun.pl", "sekretariat@sunfun.pl", "agent@sunfun.pl", "sylwia.potocka@sunfun.pl", "katowice3@sunfun.pl", "katowice2@sunfun.pl", "aleksandra.hronowska@sunfun.pl", "info11@sunfun.pl", "katowice@sunfun.pl", "info6@sunfun.pl", "katalog@sunfun.pl", "rozliczenia@sunfun.pl", "info7@sunfun.pl", "katowice1@sunfun.pl", "katowice4@sunfun.pl", "poznan@sunfun.pl"]},
{"name": "Vento. Biuro podr\u00f3\u017cy", "location": {"lat": 50.257409, "lng": 19.026052}, "contact_page": [], "formatted_address": "Mariacka 11, Katowice, Polska", "formatted_phone_number": "32 253 03 83", "international_phone_number": "+48 32 253 03 83", "address_components": {"state": "\u015bl\u0105skie", "street_number": "11", "country": "Poland", "postal_code": null, "route": "Mariacka", "city": "Katowice"}, "website": "http://www.morganatours.pl/", "emails": []},
{"name": "Victoria Trawel. Firma turystyczna", "location": {"lat": 50.26305, "lng": 19.020461}, "contact_page": ["'NoneType' object has no attribute 'findAll'"], "formatted_address": "Sokolska 31, Katowice, Polska", "formatted_phone_number": "32 258 56 47", "international_phone_number": "+48 32 258 56 47", "address_components": {"state": "\u015bl\u0105skie", "street_number": "31", "country": "Poland", "postal_code": null, "route": "Sokolska", "city": "Katowice"}, "website": "http://www.victoriatrawel.pl/", "emails": ["unknown url type: \"'NoneType' object has no attribute 'findAll'\""]},
{"name": "Hanpol Sp. z o.o. Biuro podr\u00f3\u017cy", "location": {"lat": 50.25832, "lng": 19.023341}, "contact_page": [], "formatted_address": "Staromiejska 11, Katowice, Polska", "formatted_phone_number": "32 251 26 70", "international_phone_number": "+48 32 251 26 70", "address_components": {"state": "\u015bl\u0105skie", "street_number": "11", "country": "Poland", "postal_code": null, "route": "Staromiejska", "city": "Katowice"}, "website": [], "emails": []},
{"name": "Weekend Polska. Biuro podr\u00f3\u017cy", "location": {"lat": 50.257496, "lng": 19.024974}, "contact_page": [], "formatted_address": "Mariacka 3, Katowice, Polska", "formatted_phone_number": "32 253 09 11", "international_phone_number": "+48 32 253 09 11", "address_components": {"state": "\u015bl\u0105skie", "street_number": "3", "country": "Poland", "postal_code": null, "route": "Mariacka", "city": "Katowice"}, "website": [], "emails": []},
{"name": "Turysta. Sp\u00f3\u0142dzielnia turystyczna", "location": {"lat": 50.257511, "lng": 19.02478}, "contact_page": [], "formatted_address": "Mariacka 1, Katowice, Polska", "formatted_phone_number": "32 253 87 66", "international_phone_number": "+48 32 253 87 66", "address_components": {"state": "\u015bl\u0105skie", "street_number": "1", "country": "Poland", "postal_code": null, "route": "Mariacka", "city": "Katowice"}, "website": "http://www.turysta.katowice.pl/", "emails": []},
{"name": "Atlas Tours. Biuro podr\u00f3\u017cy", "location": {"lat": 50.257511, "lng": 19.02478}, "contact_page": [], "formatted_address": "Mariacka 1, Katowice, Polska", "formatted_phone_number": "32 200 01 89", "international_phone_number": "+48 32 200 01 89", "address_components": {"state": "\u015bl\u0105skie", "street_number": "1", "country": "Poland", "postal_code": null, "route": "Mariacka", "city": "Katowice"}, "website": "http://www.atlas-tours.pl/", "emails": []},
{"name": "Globus. Przewozy mi\u0119dzynarodowe, wynajem autokar\u00f3w", "location": {"lat": 50.257511, "lng": 19.02478}, "contact_page": [], "formatted_address": "Mariacka 1, Katowice, Polska", "formatted_phone_number": "32 253 98 95", "international_phone_number": "+48 32 253 98 95", "address_components": {"state": "\u015bl\u0105skie", "street_number": "1", "country": "Poland", "postal_code": null, "route": "Mariacka", "city": "Katowice"}, "website": [], "emails": []},
{"name": "Int Travel", "location": {"lat": 50.267863, "lng": 19.024895}, "contact_page": ["http://www.inttravel.pl/cms/index.php?inc=14&id_arty=12211223246032"], "formatted_address": "aleja Korfantego 51, Katowice, Polska", "formatted_phone_number": "32 203 60 33", "international_phone_number": "+48 32 203 60 33", "address_components": {"state": "\u015bl\u0105skie", "street_number": "51", "country": "Poland", "postal_code": null, "route": "aleja Korfantego", "city": "Katowice"}, "website": "http://www.inttravel.pl/", "emails": ["intgliwice@inttravel.pl", "inttravel@inttravel.pl", "intlubin@inttravel.pl"]},
{"name": "Lufthansa City Center Travel Club. Bilety lotnicze", "location": {"lat": 50.267863, "lng": 19.024895}, "contact_page": ["http://www.lcc.com.pl/kontakt.php"], "formatted_address": "aleja Korfantego 51, Katowice, Polska", "formatted_phone_number": "32 258 02 11", "international_phone_number": "+48 32 258 02 11", "address_components": {"state": "\u015bl\u0105skie", "street_number": "51", "country": "Poland", "postal_code": null, "route": "aleja Korfantego", "city": "Katowice"}, "website": "http://www.lcc.com.pl/", "emails": []},
{"name": "Biuro Podr\u00f3\u017cy Delta Travel Transport sp.zo.o.", "location": {"lat": 50.257517, "lng": 19.024716}, "contact_page": ["http://www.delta-travel.pl/kontakt.html"], "formatted_address": "Mariacka 1, Katowice, Polska", "formatted_phone_number": "32 206 80 02", "international_phone_number": "+48 32 206 80 02", "address_components": {"state": "\u015bl\u0105skie", "street_number": "1", "country": "Poland", "postal_code": "40-014", "route": "Mariacka", "city": "Katowice"}, "website": "http://www.delta-travel.pl/", "emails": ["delta@delta-travel.pl", "sprzedaz@delta-travel.pl"]},
{"name": "PTTK. G\u00f3rno\u015bl\u0105ski Oddzia\u0142", "location": {"lat": 50.258618, "lng": 19.022524}, "contact_page": [], "formatted_address": "Staromiejska 4, Katowice, Polska", "formatted_phone_number": "32 253 03 62", "international_phone_number": "+48 32 253 03 62", "address_components": {"state": "\u015bl\u0105skie", "street_number": "4", "country": "Poland", "postal_code": null, "route": "Staromiejska", "city": "Katowice"}, "website": "http://www.pttk.katowice.pl/", "emails": []},
{"name": "Duszpasterstwo Pielgrzymkowe Diecezji Katowickiej", "location": {"lat": 50.257525, "lng": 19.03452}, "contact_page": [], "formatted_address": "Warszawska 58, Katowice, Polska", "formatted_phone_number": "32 356 90 50", "international_phone_number": "+48 32 356 90 50", "address_components": {"state": "\u015bl\u0105skie", "street_number": "58", "country": "Poland", "postal_code": null, "route": "Warszawska", "city": "Katowice"}, "website": "http://www.pielgrzymki.katowice.pl/", "emails": []},
{"name": "Family Tour. Biuro podr\u00f3\u017cy", "location": {"lat": 50.257345, "lng": 19.035089}, "contact_page": [], "formatted_address": "Warszawska 67, Katowice, Polska", "formatted_phone_number": "32 781 64 44", "international_phone_number": "+48 32 781 64 44", "address_components": {"state": "\u015bl\u0105skie", "street_number": "67", "country": "Poland", "postal_code": null, "route": "Warszawska", "city": "Katowice"}, "website": [], "emails": []},
{"name": "Wolta s.c. Biuro podr\u00f3\u017cy", "location": {"lat": 50.26833, "lng": 19.023171}, "contact_page": ["http://wolta.com.pl/page_contacts.html"], "formatted_address": "Plac Grunwaldzki 4, Katowice, Polska", "formatted_phone_number": "32 258 97 88", "international_phone_number": "+48 32 258 97 88", "address_components": {"state": "\u015bl\u0105skie", "street_number": "4", "country": "Poland", "postal_code": null, "route": "Plac Grunwaldzki", "city": "Katowice"}, "website": "http://wolta.com.pl/", "emails": ["katowice@wolta.com.pl"]},
{"name": "Krzysztof K. Biuro podr\u00f3\u017cy", "location": {"lat": 50.259646, "lng": 19.019603}, "contact_page": [], "formatted_address": "3 Maja 7, Katowice, Polska", "formatted_phone_number": "32 206 97 70", "international_phone_number": "+48 32 206 97 70", "address_components": {"state": "\u015bl\u0105skie", "street_number": "7", "country": "Poland", "postal_code": null, "route": "3 Maja", "city": "Katowice"}, "website": [], "emails": []},
{"name": "Almatur", "location": {"lat": 50.259646, "lng": 19.019603}, "contact_page": ["http://www.almatur.katowice.pl/pl/punkty-sprzedazy/biuro/katowice"], "formatted_address": "3 Maja 7, Katowice, Polska", "formatted_phone_number": "32 259 64 18", "international_phone_number": "+48 32 259 64 18", "address_components": {"state": "\u015bl\u0105skie", "street_number": "7", "country": "Poland", "postal_code": null, "route": "3 Maja", "city": "Katowice"}, "website": "http://www.almatur.katowice.pl/", "emails": ["dotkatowice@almatur.pl"]},
{"name": "Pantur. Biuro podr\u00f3\u017cy", "location": {"lat": 50.259477, "lng": 19.019457}, "contact_page": ["http://www.pantur.pl/kontakt.html"], "formatted_address": "3 Maja 20, Katowice, Polska", "formatted_phone_number": "32 253 01 78", "international_phone_number": "+48 32 253 01 78", "address_components": {"state": "\u015bl\u0105skie", "street_number": "20", "country": "Poland", "postal_code": null, "route": "3 Maja", "city": "Katowice"}, "website": "http://www.pantur.pl/", "emails": ["biuro@pantur.pl"]},
{"name": "Pod Egid\u0105", "location": {"lat": 50.259624, "lng": 19.019986}, "contact_page": [], "formatted_address": "3 Maja 5, Katowice, Polska", "formatted_phone_number": "784 379 530", "international_phone_number": "+48 784 379 530", "address_components": {"state": "\u015bl\u0105skie", "street_number": "5", "country": "Poland", "postal_code": "40-097", "route": "3 Maja", "city": "Katowice"}, "website": [], "emails": []},
{"name": "Twoje Podr\u00f3\u017ce s.c. Agencja turystyczna", "location": {"lat": 50.256109, "lng": 19.024876}, "contact_page": ["http://www.twoje-podroze.pl/kontakt.html"], "formatted_address": "Wojew\u00f3dzka 28, Katowice, Polska", "formatted_phone_number": "32 253 87 00", "international_phone_number": "+48 32 253 87 00", "address_components": {"state": "\u015bl\u0105skie", "street_number": "28", "country": "Poland", "postal_code": null, "route": "Wojew\u00f3dzka", "city": "Katowice"}, "website": "http://www.twoje-podroze.pl/", "emails": []},
{"name": "Agencja turystyczna \"Pasja\"", "location": {"lat": 50.259487, "lng": 19.01922}, "contact_page": [], "formatted_address": "3 Maja 22, Katowice, Polska", "formatted_phone_number": "32 601 20 00", "international_phone_number": "+48 32 601 20 00", "address_components": {"state": "\u015bl\u0105skie", "street_number": "22", "country": "Poland", "postal_code": "40-095", "route": "3 Maja", "city": "Katowice"}, "website": [], "emails": []},
{"name": "Explorer Tour Operator Poland", "location": {"lat": 50.257936, "lng": 19.037898}, "contact_page": ["http://www.egzotycznewycieczki.pl/contact"], "formatted_address": "1 Maja 9, Katowice, Polska", "formatted_phone_number": "32 609 40 32", "international_phone_number": "+48 32 609 40 32", "address_components": {"state": "\u015bl\u0105skie", "street_number": "9", "country": "Poland", "postal_code": "40-001", "route": "1 Maja", "city": "Katowice"}, "website": "http://www.egzotycznewycieczki.pl/", "emails": ["biuro@egzotycznewycieczki.com", "explorer@touroperator.com.pl", "manager@explorer.net.pl"]},
{"name": "Explorer - Egzotyczne Wycieczki", "location": {"lat": 50.257936, "lng": 19.037899}, "contact_page": ["http://www.egzotycznewycieczki.pl/contact"], "formatted_address": "1 Maja 9, Katowice, Poland", "formatted_phone_number": "32 609 40 32", "international_phone_number": "+48 32 609 40 32", "address_components": {"state": "Silesian Voivodeship", "street_number": "9", "country": "Poland", "postal_code": null, "route": "1 Maja", "city": "Katowice"}, "website": "http://www.egzotycznewycieczki.pl/", "emails": ["biuro@egzotycznewycieczki.com", "explorer@touroperator.com.pl", "manager@explorer.net.pl"]},
{"name": "Costa Travel. Stach A.", "location": {"lat": 50.256219, "lng": 19.023523}, "contact_page": [], "formatted_address": "Wojew\u00f3dzka 18, Katowice, Polska", "formatted_phone_number": "32 206 84 94", "international_phone_number": "+48 32 206 84 94", "address_components": {"state": "\u015bl\u0105skie", "street_number": "18", "country": "Poland", "postal_code": null, "route": "Wojew\u00f3dzka", "city": "Katowice"}, "website": [], "emails": []},
{"name": "Abraksas. Biuro podr\u00f3\u017cy", "location": {"lat": 50.260757, "lng": 19.018097}, "contact_page": ["HTTP Error 403: Forbidden"], "formatted_address": "Stawowa 3, Katowice, Polska", "formatted_phone_number": "32 781 79 37", "international_phone_number": "+48 32 781 79 37", "address_components": {"state": "\u015bl\u0105skie", "street_number": "3", "country": "Poland", "postal_code": null, "route": "Stawowa", "city": "Katowice"}, "website": "http://abraksas.pl/", "emails": ["<urlopen error unknown url type: http error 403>"]},
{"name": "Biuro Podr\u00f3\u017cy INDEX", "location": {"lat": 50.260727, "lng": 19.018074}, "contact_page": ["http://www.indexpolska.com.pl/kontakt.html"], "formatted_address": "Stawowa 5, Katowice, Polska", "formatted_phone_number": "32 258 35 24", "international_phone_number": "+48 32 258 35 24", "address_components": {"state": "\u015bl\u0105skie", "street_number": "5", "country": "Poland", "postal_code": "40-095", "route": "Stawowa", "city": "Katowice"}, "website": "http://www.indexpolska.com.pl/", "emails": ["natalia@indexpolska.com.pl", "agnieszka@indexpolska.com.pl", "beata@indexpolska.com.pl", "malwina@indexpolska.com.pl", "krzysztof@indexpolska.com.pl", "w.wiecek@indexpolska.com.pl", "e.krzystala@indexpolska.com.pl", "anna@indexpolska.com.pl", "kasia@indexpolska.com.pl", "gosia@indexpolska.com", "biuro@indexpolska.com.pl", "katarzyna@indexpolska.com.pl", "ola@indexpolska.com.pl", "magda@indexpolska.com.pl", "krzysiek@indexpolska.com.pl", "grazyna@indexpolska.com.pl", "bozena@indexpolska.com.pl", "k.wiecek@indexpolska.com.pl", "yna@indexpolska.com.pl", "marcin@indexpolska.com.pl", "jacek@indexpolska.com.pl", "magdalena@indexpolska.com.pl", "pawel@indexpolska.com.pl"]},
{"name": "Jadran Travel Sp z o.o.", "location": {"lat": 50.260361, "lng": 19.018103}, "contact_page": ["http://www.jadrantravel.pl/kontakt.html"], "formatted_address": "Stawowa 7, Katowice, Polska", "formatted_phone_number": "519 395 478", "international_phone_number": "+48 519 395 478", "address_components": {"state": "\u015bl\u0105skie", "street_number": "7", "country": "Poland", "postal_code": "40-095", "route": "Stawowa", "city": "Katowice"}, "website": "http://www.jadrantravel.pl/", "emails": ["jadrantravel@jadrantravel.pl"]},
{"name": "Nomad. Cio\u0142czyk G.", "location": {"lat": 50.260361, "lng": 19.018103}, "contact_page": [], "formatted_address": "Stawowa 7, Katowice, Polska", "formatted_phone_number": "32 601 20 19", "international_phone_number": "+48 32 601 20 19", "address_components": {"state": "\u015bl\u0105skie", "street_number": "7", "country": "Poland", "postal_code": null, "route": "Stawowa", "city": "Katowice"}, "website": [], "emails": []},
{"name": "Biuro podr\u00f3\u017cy Euro-Rejs Sp. z o.o.", "location": {"lat": 50.256258, "lng": 19.023025}, "contact_page": [], "formatted_address": "Wojew\u00f3dzka 14, Katowice, Polska", "formatted_phone_number": "32 253 50 02", "international_phone_number": "+48 32 253 50 02", "address_components": {"state": "\u015bl\u0105skie", "street_number": "14", "country": "Poland", "postal_code": "40-026", "route": "Wojew\u00f3dzka", "city": "Katowice"}, "website": "http://www.eurorejs.pl/", "emails": []},
{"name": "Biuro Podr\u00f3\u017cy PL TRAVEL", "location": {"lat": 50.256258, "lng": 19.023025}, "contact_page": [], "formatted_address": "Wojew\u00f3dzka 14, Katowice, Polska", "formatted_phone_number": "798 431 346", "international_phone_number": "+48 798 431 346", "address_components": {"state": "\u015bl\u0105skie", "street_number": "14", "country": "Poland", "postal_code": "40-026", "route": "Wojew\u00f3dzka", "city": "Katowice"}, "website": "http://www.pltravel.pl/", "emails": []},
{"name": "Wycieczki dla firm - Katowice", "location": {"lat": 50.256258, "lng": 19.023025}, "contact_page": [], "formatted_address": "Wojew\u00f3dzka 14, Katowice, Polska", "formatted_phone_number": "798 431 346", "international_phone_number": "+48 798 431 346", "address_components": {"state": "\u015bl\u0105skie", "street_number": "14", "country": "Poland", "postal_code": "40-015", "route": "Wojew\u00f3dzka", "city": "Katowice"}, "website": "http://www.wyjazdygrupowe.eu/", "emails": []},
{"name": "Maja Travel. Przedsi\u0119biorstWo turystyczno - us\u0142ugowe", "location": {"lat": 50.260008, "lng": 19.018113}, "contact_page": [], "formatted_address": "Stawowa 11, Katowice, Polska", "formatted_phone_number": "32 258 99 36", "international_phone_number": "+48 32 258 99 36", "address_components": {"state": "\u015bl\u0105skie", "street_number": "11", "country": "Poland", "postal_code": null, "route": "Stawowa", "city": "Katowice"}, "website": [], "emails": []},
{"name": "Biuro Turystyczne M\u0104DELTRANS - o. Katowice", "location": {"lat": 50.262307, "lng": 19.017373}, "contact_page": [], "formatted_address": "Skargi 4, Katowice, Polska", "formatted_phone_number": "32 748 47 20", "international_phone_number": "+48 32 748 47 20", "address_components": {"state": "\u015bl\u0105skie", "street_number": "4", "country": "Poland", "postal_code": "40-091", "route": "Skargi", "city": "Katowice"}, "website": [], "emails": []},
{"name": "Biuro Podr\u00f3\u017cy, Katowice - Travelplanet.pl SA", "location": {"lat": 50.259323, "lng": 19.01839}, "contact_page": ["http://www.travelplanet.pl/kontakt/"], "formatted_address": "Poland", "formatted_phone_number": "71 771 76 35", "international_phone_number": "+48 71 771 76 35", "address_components": {"state": null, "street_number": null, "country": "Poland", "postal_code": "40-098", "route": null, "city": null}, "website": "http://www.travelplanet.pl/pok/biuro-podrozy-galeria-katowicka.html", "emails": ["sekretariat@travelplanet.pl", "media@travelplanet.pl"]},
{"name": "Metro. Wczasy, wycieczki, bilety", "location": {"lat": 50.261296, "lng": 19.017286}, "contact_page": ["http://www.metro.turystyka.pl/index.php?mainmodule=Ucs/Menu/untSubpages.php&id=00000010H46X620D5F26OEWIM74T58Z4", "http://www.metro.turystyka.pl/index.php?mainmodule=Ucs/Menu/untSubpages.php&id=00000010H46X620D5F26OEWIM74T58Z4&"], "formatted_address": "40-093 Katowice; Chopina 1, Polska", "formatted_phone_number": "32 253 90 28", "international_phone_number": "+48 32 253 90 28", "address_components": {"state": null, "street_number": null, "country": "Poland", "postal_code": "40-093", "route": null, "city": null}, "website": "http://www.metro.turystyka.pl/", "emails": ["'utf-8' codec can't decode bytes in position 159-160: invalid continuation byte"]},
{"name": "MEGA TRAVEL sp. z o.o. Biuro Podr\u00f3\u017cy", "location": {"lat": 50.256218, "lng": 19.021925}, "contact_page": ["http://www.megatravel.pl/kontakt.php"], "formatted_address": "Wojew\u00f3dzka 7, Katowice, Polska", "formatted_phone_number": "32 781 50 07", "international_phone_number": "+48 32 781 50 07", "address_components": {"state": "\u015bl\u0105skie", "street_number": "7", "country": "Poland", "postal_code": "40-026", "route": "Wojew\u00f3dzka", "city": "Katowice"}, "website": "http://www.megatravel.pl/", "emails": []},
{"name": "OASIS TOURS Sp. z o.o.", "location": {"lat": 50.26174, "lng": 19.016797}, "contact_page": ["http://www.oasistours.com.pl/o-nas/kontakt/", "http://www.oasistours.com.pl/strefa-agenta/kontakt/"], "formatted_address": "S\u0142owackiego 15, (wej\u015bcie od ulicy Mickiewiecz), Katowice, Polska", "formatted_phone_number": "32 350 01 15", "international_phone_number": "+48 32 350 01 15", "address_components": {"state": null, "street_number": null, "country": "Poland", "postal_code": "40-093", "route": null, "city": "Katowice"}, "website": "http://www.oasistours.com.pl/", "emails": ["radoslaw.mazurek@oasistours.com.pl", "alicja.dobkiewicz@oasistours.com.pl", "przemek.czosnowski@oasistours.com.pl", "barbara.kuriata@oasistours.com.pl", "patrycja.szwedowska@oasistours.com.pl", "aleksandra.baczynska@oasistours.com.pl", "bernadeta.winczewska@oasistours.com.pl", "aleksandra.rogalska@oasistours.com.pl", "filip.ryglewicz@oasistours.com.pl"]},
{"name": "Beti Travel", "location": {"lat": 50.262644, "lng": 19.016594}, "contact_page": ["http://betitravel.com.pl/p,kontakt"], "formatted_address": "Skargi 8, Katowice, Polska", "formatted_phone_number": "32 259 73 24", "international_phone_number": "+48 32 259 73 24", "address_components": {"state": "\u015bl\u0105skie", "street_number": "8", "country": "Poland", "postal_code": null, "route": "Skargi", "city": "Katowice"}, "website": "http://betitravel.com.pl/", "emails": ["betitravel@betitravel.com.pl"]},
